[
  {
    "guid": "05024756-765e-41a9-89d7-1407436d9a58",
    "school": "Iowa State University",
    "mascot": "Cy the Cardinal",
    "nickname": "Cyclones",
    "location": "Ames, IA, USA",
    "latlong": "42.026111,-93.648333",
    "ncaa": "Division I",
    "conference": "Big 12 Conference"
  },
  {
    "guid": "2a34a3c4-4b4d-4f4f-a333-6a666d6a776f",
    "school": "University of Illinois at Urbana-Champaign",
    "mascot": "Chief Illiniwek",
    "nickname": "Fighting Illini",
    "location": "Champaign, IL, USA",
    "latlong": "40.1018, -88.2272",
    "ncaa": "Division I",
    "conference": "Big Ten Conference"
  },
  {
    "guid": "3b45b4d5-5c5d-5e5f-b444-7b777e7b8870",
    "school": "Indiana University Bloomington",
    "mascot": "Hoosiers",
    "nickname": "Hoosiers",
    "location": "Bloomington, IN, USA",
    "latlong": "39.1663, -86.5264",
    "ncaa": "Division I",
    "conference": "Big Ten Conference"
  },
  {
    "guid": "4c56c5d6-6d6e-6f6f-c555-8c888f8c9981",
    "school": "University of Iowa",
    "mascot": "Herky the Hawk",
    "nickname": "Hawkeyes",
    "location": "Iowa City, IA, USA",
    "latlong": "41.6611, -91.5302",
    "ncaa": "Division I",
    "conference": "Big Ten Conference"
  },
  {
    "guid": "5d67d6e7-7e7f-7g7g-d666-9d999g9d0a92",
    "school": "University of Maryland, College Park",
    "mascot": "Testudo",
    "nickname": "Terrapins",
    "location": "College Park, MD, USA",
    "latlong": "38.9869, -76.9426",
    "ncaa": "Division I",
    "conference": "Big Ten Conference"
  },
  {
    "guid": "6e78e7f8-8f8g-8h8h-e777-0e000h0e1b03",
    "school": "University of Michigan",
    "mascot": "Wolverine",
    "nickname": "Wolverines",
    "location": "Ann Arbor, MI, USA",
    "latlong": "42.2780, -83.7382",
    "ncaa": "Division I",
    "conference": "Big Ten Conference"
  },
  {
    "guid": "7f89f8g9-9g9h-9i9i-f888-1f111i1f2c14",
    "school": "Michigan State University",
    "mascot": "Sparty",
    "nickname": "Spartans",
    "location": "East Lansing, MI, USA",
    "latlong": "42.7319, -84.4839",
    "ncaa": "Division I",
    "conference": "Big Ten Conference"
  },
  {
    "guid": "8g90g9h0-a0a1-a2a2-g999-2g222j2g3d25",
    "school": "University of Minnesota Twin Cities",
    "mascot": "Goldy Gopher",
    "nickname": "Golden Gophers",
    "location": "Minneapolis, MN, USA",
    "latlong": "44.9735, -93.2323",
    "ncaa": "Division I",
    "conference": "Big Ten Conference"
  },
  {
    "guid": "9h01h1i1-b1b2-b3b3-h000-3h333k3h4e36",
    "school": "University of Nebraska-Lincoln",
    "mascot": "Herbie Husker",
    "nickname": "Cornhuskers",
    "location": "Lincoln, NE, USA",
    "latlong": "40.8202, -96.7005",
    "ncaa": "Division I",
    "conference": "Big Ten Conference"
  },
  {
    "guid": "0i12i2j2-c2c3-c4c4-i111-4i444l4i5f47",
    "school": "Northwestern University",
    "mascot": "Willie the Wildcat",
    "nickname": "Wildcats",
    "location": "Evanston, IL, USA",
    "latlong": "42.0558, -87.6743",
    "ncaa": "Division I",
    "conference": "Big Ten Conference"
  },
  {
    "guid": "1j23j3k3-d3d4-d5d5-j222-5j555m5j6g58",
    "school": "Ohio State University",
    "mascot": "Brutus Buckeye",
    "nickname": "Buckeyes",
    "location": "Columbus, OH, USA",
    "latlong": "40.0057, -83.0287",
    "ncaa": "Division I",
    "conference": "Big Ten Conference"
  },
  {
    "guid": "2k34k4l4-e4e5-e6e6-k333-6k666n6k7h69",
    "school": "Pennsylvania State University",
    "mascot": "Nittany Lion",
    "nickname": "Nittany Lions",
    "location": "University Park, PA, USA",
    "latlong": "40.7982, -77.8599",
    "ncaa": "Division I",
    "conference": "Big Ten Conference"
  },
  {
    "guid": "3l45l5m5-f5f6-f7f7-l444-7l777o7l8i70",
    "school": "Purdue University",
    "mascot": "Boilermaker Special",
    "nickname": "Boilermakers",
    "location": "West Lafayette, IN, USA",
    "latlong": "40.4240, -86.9295",
    "ncaa": "Division I",
    "conference": "Big Ten Conference"
  },
  {
    "guid": "4m56m5n6-g6g7-g8g8-m555-8m888p8m9j81",
    "school": "Rutgers University",
    "mascot": "Scarlet Knight",
    "nickname": "Scarlet Knights",
    "location": "New Brunswick, NJ, USA",
    "latlong": "40.5009, -74.4474",
    "ncaa": "Division I",
    "conference": "Big Ten Conference"
  },
  {
    "guid": "5n67n7o7-h7h8-h9h9-n666-9n999q9n0k92",
    "school": "University of Wisconsin-Madison",
    "mascot": "Bucky Badger",
    "nickname": "Badgers",
    "location": "Madison, WI, USA",
    "latlong": "43.0702, -89.4119",
    "ncaa": "Division I",
    "conference": "Big Ten Conference"
  },
  {
    "guid": "1a23b4c5-d6e7-f8g9-h0i1-j2k3l4m5n6o7",
    "school": "Baylor University",
    "mascot": "Bruiser the Bear",
    "nickname": "Bears",
    "location": "Waco, TX, USA",
    "latlong": "31.5469, -97.1211",
    "ncaa": "Division I",
    "conference": "Big 12 Conference"
  },
  {
    "guid": "3c45d6e7-f8g9-h0i1-j2k3-l4m5n6o7p8q",
    "school": "University of Kansas",
    "mascot": "Big Jay and Baby Jay",
    "nickname": "Jayhawks",
    "location": "Lawrence, KS, USA",
    "latlong": "38.9586, -95.2479",
    "ncaa": "Division I",
    "conference": "Big 12 Conference"
  },
  {
    "guid": "4d56e7f8-g9h0-i1j2-k3l4-m5n6o7p8q9r",
    "school": "Kansas State University",
    "mascot": "Willy the Wildcat",
    "nickname": "Wildcats",
    "location": "Manhattan, KS, USA",
    "latlong": "39.1911, -96.5803",
    "ncaa": "Division I",
    "conference": "Big 12 Conference"
  },
  {
    "guid": "5e67f8g9-h0i1-j2k3-l4m5-n6o7p8q9r0s",
    "school": "University of Oklahoma",
    "mascot": "Boomer and Sooner",
    "nickname": "Sooners",
    "location": "Norman, OK, USA",
    "latlong": "35.2226, -97.4395",
    "ncaa": "Division I",
    "conference": "Big 12 Conference"
  },
  {
    "guid": "6f78g9h0-i1j2-k3l4-m5n6-o7p8q9r0s1t",
    "school": "Oklahoma State University",
    "mascot": "Pistol Pete",
    "nickname": "Cowboys",
    "location": "Stillwater, OK, USA",
    "latlong": "36.1156, -97.0586",
    "ncaa": "Division I",
    "conference": "Big 12 Conference"
  },
  {
    "guid": "7g89h0i1-j2k3-l4m5-n6o7-p8q9r0s1t2u",
    "school": "Texas Christian University",
    "mascot": "SuperFrog",
    "nickname": "Horned Frogs",
    "location": "Fort Worth, TX, USA",
    "latlong": "32.7095, -97.361",
    "ncaa": "Division I",
    "conference": "Big 12 Conference"
  },
  {
    "guid": "8h90i1j2-k3l4-m5n6-o7p8-q9r0s1t2u3v",
    "school": "University of Texas at Austin",
    "mascot": "Hook 'em",
    "nickname": "Longhorns",
    "location": "Austin, TX, USA",
    "latlong": "30.2849, -97.7341",
    "ncaa": "Division I",
    "conference": "Big 12 Conference"
  },
  {
    "guid": "9i01j2k3-l4m5-n6o7-p8q9-r0s1t2u3v4w",
    "school": "Texas Tech University",
    "mascot": "Raider Red",
    "nickname": "Red Raiders",
    "location": "Lubbock, TX, USA",
    "latlong": "33.5842, -101.878",
    "ncaa": "Division I",
    "conference": "Big 12 Conference"
  },
  {
    "guid": "a01b2c3d-4e5f-6g7h-8i9j-k0l1m2n3o4p",
    "school": "West Virginia University",
    "mascot": "The Mountaineer",
    "nickname": "Mountaineers",
    "location": "Morgantown, WV, USA",
    "latlong": "39.63582, -79.95453",
    "ncaa": "Division I",
    "conference": "Big 12 Conference"
  },
  {
    "guid": "b1c2d3e4-f5g6-h7i8-j9k0-l1m2n3o4p5q",
    "school": "University of Arizona",
    "mascot": "Wilbur and Wilma Wildcat",
    "nickname": "Wildcats",
    "location": "Tucson, AZ, USA",
    "latlong": "32.2283, -110.956",
    "ncaa": "Division I",
    "conference": "Pac-12 Conference"
  },
  {
    "guid": "c1d2e3f4-g5h6-i7j8-k9l0-m1n2o3p4q5r",
    "school": "Arizona State University",
    "mascot": "Sparky the Sun Devil",
    "nickname": "Sun Devils",
    "location": "Tempe, AZ, USA",
    "latlong": "33.4242, -111.928",
    "ncaa": "Division I",
    "conference": "Pac-12 Conference"
  },
  {
    "guid": "d1e2f3g4-h5i6-j7k8-l9m0-n1o2p3q4r5s",
    "school": "University of California, Berkeley",
    "mascot": "Oski the Bear",
    "nickname": "Golden Bears",
    "location": "Berkeley, CA, USA",
    "latlong": "37.8719, -122.2585",
    "ncaa": "Division I",
    "conference": "Pac-12 Conference"
  },
  {
    "guid": "e1f2g3h4-i5j6-k7l8-m9n0-o1p2q3r4s5t",
    "school": "University of California, Los Angeles",
    "mascot": "Joe and Josephine Bruin",
    "nickname": "Bruins",
    "location": "Los Angeles, CA, USA",
    "latlong": "34.0689, -118.4452",
    "ncaa": "Division I",
    "conference": "Pac-12 Conference"
  },
  {
    "guid": "f1g2h3i4-j5k6-l7m8-n9o0-p1q2r3s4t5u",
    "school": "University of Colorado Boulder",
    "mascot": "Ralphie the Buffalo",
    "nickname": "Buffaloes",
    "location": "Boulder, CO, USA",
    "latlong": "40.0076, -105.2659",
    "ncaa": "Division I",
    "conference": "Pac-12 Conference"
  },
  {
    "guid": "g1h2i3j4-k5l6-m7n8-o9p0-q1r2s3t4u5v",
    "school": "University of Oregon",
    "mascot": "The Oregon Duck",
    "nickname": "Ducks",
    "location": "Eugene, OR, USA",
    "latlong": "44.0521, -123.0868",
    "ncaa": "Division I",
    "conference": "Pac-12 Conference"
  },
  {
    "guid": "i1j2k3l4-m5n6-o7p8-q9r0-s1t2u3v4w5x",
    "school": "Oregon State University",
    "mascot": "Benny the Beaver",
    "nickname": "Beavers",
    "location": "Corvallis, OR, USA",
    "latlong": "44.5646, -123.2620",
    "ncaa": "Division I",
    "conference": "Pac-12 Conference"
  },
  {
    "guid": "j1k2l3m4-n5o6-p7q8-r9s0-t1u2v3w4x5y",
    "school": "University of Southern California",
    "mascot": "Traveler and Tommy Trojan",
    "nickname": "Trojans",
    "location": "Los Angeles, CA, USA",
    "latlong": "34.0205, -118.2856",
    "ncaa": "Division I",
    "conference": "Pac-12 Conference"
  },
  {
    "guid": "k1l2m3n4-o5p6-q7r8-s9t0-u1v2w3x4y5z",
    "school": "Stanford University",
    "mascot": "Stanford Tree",
    "nickname": "Cardinal",
    "location": "Stanford, CA, USA",
    "latlong": "37.4275, -122.1697",
    "ncaa": "Division I",
    "conference": "Pac-12 Conference"
  },
  {
    "guid": "l1m2n3o4-p5q6-r7s8-t9u0-v1w2x3y4z5a",
    "school": "University of California, Berkeley",
    "mascot": "Oski the Bear",
    "nickname": "Golden Bears",
    "location": "Berkeley, CA, USA",
    "latlong": "37.8719, -122.2585",
    "ncaa": "Division I",
    "conference": "Pac-12 Conference"
  },
  {
    "guid": "m1n2o3p4-q5r6-s7t8-u9v0-w1x2y3z4a5b",
    "school": "University of Utah",
    "mascot": "Swoop",
    "nickname": "Utes",
    "location": "Salt Lake City, UT, USA",
    "latlong": "40.7644, -111.8456",
    "ncaa": "Division I",
    "conference": "Pac-12 Conference"
  },
  {
    "guid": "n1o2p3q4-r5s6-t7u8-v9w0-x1y2z3a4b5c",
    "school": "University of Washington",
    "mascot": "Harry the Husky",
    "nickname": "Huskies",
    "location": "Seattle, WA, USA",
    "latlong": "47.6566, -122.3128",
    "ncaa": "Division I",
    "conference": "Pac-12 Conference"
  },
  {
    "guid": "o1p2q3r4-s5t6-u7v8-w9x0-y1z2a3b4c5d",
    "school": "Washington State University",
    "mascot": "Butch T. Cougar",
    "nickname": "Cougars",
    "location": "Pullman, WA, USA",
    "latlong": "46.7317, -117.1548",
    "ncaa": "Division I",
    "conference": "Pac-12 Conference"
  },
  {
    "guid": "p1q2r3s4-t5u6-v7w8-x9y0-z1a2b3c4d5e",
    "school": "University of Arizona",
    "mascot": "Wilbur and Wilma Wildcat",
    "nickname": "Wildcats",
    "location": "Tucson, AZ, USA",
    "latlong": "32.2319, -110.9501",
    "ncaa": "Division I",
    "conference": "Pac-12 Conference"
  },
  {
    "guid": "q1r2s3t4-u5v6-w7x8-y9z0-a1b2c3d4e5f",
    "school": "Arizona State University",
    "mascot": "Sparky the Sun Devil",
    "nickname": "Sun Devils",
    "location": "Tempe, AZ, USA",
    "latlong": "33.4242, -111.9281",
    "ncaa": "Division I",
    "conference": "Pac-12 Conference"
  },
  {
    "guid": "r1s2t3u4-v5w6-x7y8-z9a0-b1c2d3e4f5g",
    "school": "University of California, Los Angeles",
    "mascot": "Joe and Josephine Bruin",
    "nickname": "Bruins",
    "location": "Los Angeles, CA, USA",
    "latlong": "34.0689, -118.4452",
    "ncaa": "Division I",
    "conference": "Pac-12 Conference"
  },
  {
    "guid": "s1t2u3v4-w5x6-y7z8-a9b0-c1d2e3f4g5h",
    "school": "University of Colorado Boulder",
    "mascot": "Ralphie the Buffalo",
    "nickname": "Buffaloes",
    "location": "Boulder, CO, USA",
    "latlong": "40.0076, -105.2659",
    "ncaa": "Division I",
    "conference": "Pac-12 Conference"
  },
  {
    "guid": "f13b8765-12bf-4056-b5a8-9a6e5c6de5a5",
    "school": "Alabama A&M University",
    "mascot": "Bulldog",
    "nickname": "Bulldogs",
    "location": "Normal, AL, USA",
    "latlong": "34.7838, -86.5635",
    "ncaa": "Division I",
    "conference": "Southwestern Athletic Conference"
  },
  {
    "guid": "21a48b50-3d43-4a3a-9b54-69b46343f4c1",
    "school": "Alabama State University",
    "mascot": "Sting",
    "nickname": "Hornets",
    "location": "Montgomery, AL, USA",
    "latlong": "32.3643, -86.2955",
    "ncaa": "Division I",
    "conference": "Southwestern Athletic Conference"
  },
  {
    "guid": "41c25e12-f690-44b8-8f6a-78fd76f43b7e",
    "school": "Alcorn State University",
    "mascot": "Brave",
    "nickname": "Braves",
    "location": "Lorman, MS, USA",
    "latlong": "31.8528, -91.1349",
    "ncaa": "Division I",
    "conference": "Southwestern Athletic Conference"
  },
  {
    "guid": "b7e4c035-16b7-43b4-a42c-1aeb27707f63",
    "school": "Arkansas-Pine Bluff",
    "mascot": "Lion",
    "nickname": "Golden Lions",
    "location": "Pine Bluff, AR, USA",
    "latlong": "34.2284, -92.0032",
    "ncaa": "Division I",
    "conference": "Southwestern Athletic Conference"
  },
  {
    "guid": "37bd5af5-f75f-4481-a82c-94abbc69f755",
    "school": "Grambling State University",
    "mascot": "Tiger",
    "nickname": "Tigers",
    "location": "Grambling, LA, USA",
    "latlong": "32.5258, -92.7126",
    "ncaa": "Division I",
    "conference": "Southwestern Athletic Conference"
  },
  {
    "guid": "84d4e4fc-cb4a-43f2-9c3c-5f9c9d0af88e",
    "school": "Jackson State University",
    "mascot": "Tiger",
    "nickname": "Wavee Dave",
    "location": "Jackson, MS, USA",
    "latlong": "32.3054, -90.1833",
    "ncaa": "Division I",
    "conference": "Southwestern Athletic Conference"
  },
  {
    "guid": "74a52c37-2fa2-4413-9061-2145277f9940",
    "school": "Mississippi Valley State University",
    "mascot": "Devil",
    "nickname": "Delta Devils",
    "location": "Itta Bena, MS, USA",
    "latlong": "33.4984, -90.3088",
    "ncaa": "Division I",
    "conference": "Southwestern Athletic Conference"
  },
  {
    "guid": "d42f9a14-4924-4a1a-a8fb-89d019a4ce4a",
    "school": "Prairie View A&M University",
    "mascot": "Panther",
    "nickname": "Panthers",
    "location": "Prairie View, TX, USA",
    "latlong": "30.0796, -95.9862",
    "ncaa": "Division I",
    "conference": "Southwestern Athletic Conference"
  },
  {
    "guid": "8140d49a-6957-47b1-8d9d-5e5ca5f7e5d3",
    "school": "Southern University and A&M College",
    "mascot": "Jaguar",
    "nickname": "Jaguars",
    "location": "Baton Rouge, LA, USA",
    "latlong": "30.5172, -91.1870",
    "ncaa": "Division I",
    "conference": "Southwestern Athletic Conference"
  },
  {
    "guid": "30dfafda-62ed-4f79-96e4-c4b53045e7d5",
    "school": "Texas Southern University",
    "mascot": "Tiger",
    "nickname": "Tigers",
    "location": "Houston, TX, USA",
    "latlong": "29.7225, -95.3381",
    "ncaa": "Division I",
    "conference": "Southwestern Athletic Conference"
  }
]